{
  "type": "FeatureCollection",
  "features": [
    {
      "type": "Feature",
      "properties": { "name": "Berlin", "country": "Germany", "value": 7456, "score": "high", "change": 12.5 },
      "geometry": { "type": "Point", "coordinates": [13.405, 52.52] }
    },
    {
      "type": "Feature",
      "properties": { "name": "Munich", "country": "Germany", "value": 4820, "score": "high", "change": 9.8 },
      "geometry": { "type": "Point", "coordinates": [11.576, 48.137] }
    },
    {
      "type": "Feature",
      "properties": { "name": "Frankfurt", "country": "Germany", "value": 3910, "score": "high", "change": 8.1 },
      "geometry": { "type": "Point", "coordinates": [8.682, 50.110] }
    },
    {
      "type": "Feature",
      "properties": { "name": "London", "country": "United Kingdom", "value": 5632, "score": "high", "change": 8.3 },
      "geometry": { "type": "Point", "coordinates": [-0.128, 51.507] }
    },
    {
      "type": "Feature",
      "properties": { "name": "Manchester", "country": "United Kingdom", "value": 2100, "score": "high", "change": 6.4 },
      "geometry": { "type": "Point", "coordinates": [-2.242, 53.480] }
    },
    {
      "type": "Feature",
      "properties": { "name": "Warsaw", "country": "Poland", "value": 2497, "score": "high", "change": 11.2 },
      "geometry": { "type": "Point", "coordinates": [21.012, 52.229] }
    },
    {
      "type": "Feature",
      "properties": { "name": "Krakow", "country": "Poland", "value": 1680, "score": "high", "change": 10.1 },
      "geometry": { "type": "Point", "coordinates": [19.945, 50.064] }
    },
    {
      "type": "Feature",
      "properties": { "name": "Amsterdam", "country": "Netherlands", "value": 1456, "score": "high", "change": 7.1 },
      "geometry": { "type": "Point", "coordinates": [4.904, 52.367] }
    },
    {
      "type": "Feature",
      "properties": { "name": "Brussels", "country": "Belgium", "value": 1320, "score": "high", "change": 6.9 },
      "geometry": { "type": "Point", "coordinates": [4.351, 50.850] }
    },
    {
      "type": "Feature",
      "properties": { "name": "Paris", "country": "France", "value": 1203, "score": "high", "change": 5.8 },
      "geometry": { "type": "Point", "coordinates": [2.352, 48.856] }
    },
    {
      "type": "Feature",
      "properties": { "name": "Lyon", "country": "France", "value": 890, "score": "high", "change": 4.5 },
      "geometry": { "type": "Point", "coordinates": [4.835, 45.764] }
    },
    {
      "type": "Feature",
      "properties": { "name": "Milan", "country": "Italy", "value": 1780, "score": "high", "change": 7.6 },
      "geometry": { "type": "Point", "coordinates": [9.190, 45.464] }
    },
    {
      "type": "Feature",
      "properties": { "name": "Madrid", "country": "Spain", "value": 1540, "score": "high", "change": 6.2 },
      "geometry": { "type": "Point", "coordinates": [-3.703, 40.416] }
    },
    {
      "type": "Feature",
      "properties": { "name": "New York", "country": "USA", "value": 987, "score": "low", "change": 3.2 },
      "geometry": { "type": "Point", "coordinates": [-74.006, 40.712] }
    },
    {
      "type": "Feature",
      "properties": { "name": "Los Angeles", "country": "USA", "value": 620, "score": "low", "change": 2.8 },
      "geometry": { "type": "Point", "coordinates": [-118.243, 34.052] }
    },
    {
      "type": "Feature",
      "properties": { "name": "Toronto", "country": "Canada", "value": 540, "score": "low", "change": 2.1 },
      "geometry": { "type": "Point", "coordinates": [-79.383, 43.653] }
    },
    {
      "type": "Feature",
      "properties": { "name": "São Paulo", "country": "Brazil", "value": 480, "score": "low", "change": 1.9 },
      "geometry": { "type": "Point", "coordinates": [-46.633, -23.550] }
    },
    {
      "type": "Feature",
      "properties": { "name": "Dubai", "country": "UAE", "value": 710, "score": "low", "change": 4.1 },
      "geometry": { "type": "Point", "coordinates": [55.270, 25.204] }
    },
    {
      "type": "Feature",
      "properties": { "name": "Singapore", "country": "Singapore", "value": 590, "score": "low", "change": 3.5 },
      "geometry": { "type": "Point", "coordinates": [103.819, 1.352] }
    },
    {
      "type": "Feature",
      "properties": { "name": "Sydney", "country": "Australia", "value": 430, "score": "low", "change": 1.6 },
      "geometry": { "type": "Point", "coordinates": [151.209, -33.868] }
    },
    {
      "type": "Feature",
      "properties": { "name": "Vienna", "country": "Austria", "value": 654, "score": "low", "change": -1.4 },
      "geometry": { "type": "Point", "coordinates": [16.373, 48.208] }
    },
    {
      "type": "Feature",
      "properties": { "name": "Zurich", "country": "Switzerland", "value": 521, "score": "low", "change": 2.1 },
      "geometry": { "type": "Point", "coordinates": [8.541, 47.376] }
    }
  ]
}
